[{"datasetid": "bibliotheques-mel", "recordid": "6ac70eefc900677063caa66c793f0b7a254ac03d", "fields": {"ville": "ROUBAIX", "geometry": {"coordinates": [3.1767012633733, 50.690847253702], "type": "Point"}, "geo_point_2d": [50.690847253702, 3.1767012633733], "objectid": "83", "libelle": "Mediatheque La Grand-Plage", "code_postal": "59066", "horairesosm": "Tu-Sa 10:00-19:00", "adresse": "2 Rue Pierre Motte BP 737"}, "geometry": {"type": "Point", "coordinates": [3.1767012633733, 50.690847253702]}, "record_timestamp": "2022-06-02T04:00:01.376+02:00"},{"datasetid": "bibliotheques-mel", "recordid": "2c9d4621152f4546dd37ce7a765440ef393e2e87", "fields": {"ville": "SANTES", "geometry": {"coordinates": [2.963817126229, 50.589954641515], "type": "Point"}, "geo_point_2d": [50.589954641515, 2.963817126229], "objectid": "90", "libelle": "Bibliotheque", "code_postal": "59211", "adresse": "avenue Albert Bernard"}, "geometry": {"type": "Point", "coordinates": [2.963817126229, 50.589954641515]}, "record_timestamp": "2022-06-02T04:00:01.376+02:00"},{"datasetid": "bibliotheques-mel", "recordid": "4dd1464b2c246ee158555d712272ce0169534998", "fields": {"ville": "TOURCOING", "geometry": {"coordinates": [3.1800373368624, 50.739221314355], "type": "Point"}, "geo_point_2d": [50.739221314355, 3.1800373368624], "objectid": "98", "libelle": "Ludo-Mediatheque Colette", "code_postal": "59208", "horairesosm": "Tu,Fr 16:00-18:30; We 10:00-12:30,13:30-18:30; Sa 10:00-12:30,13:30-17:30", "adresse": "27 avenue Roger Salengro"}, "geometry": {"type": "Point", "coordinates": [3.1800373368624, 50.739221314355]}, "record_timestamp": "2022-06-02T04:00:01.376+02:00"},{"datasetid": "bibliotheques-mel", "recordid": "f964dd56f6319d09bf6ddb84a22cd9218d58b348", "fields": {"ville": "CROIX", "geometry": {"coordinates": [3.1439763147314, 50.675417978748], "type": "Point"}, "geo_point_2d": [50.675417978748, 3.1439763147314], "objectid": "11", "libelle": "Bibliotheque pour tous du Centre", "code_postal": "59170", "horairesosm": "Tu 16:15-18:30; We 10:00-12:00,16:00-18:00; Fr-Su 10:00-12:00", "adresse": "53 bis rue de la Gare"}, "geometry": {"type": "Point", "coordinates": [3.1439763147314, 50.675417978748]}, "record_timestamp": "2022-06-02T04:00:01.376+02:00"},{"datasetid": "bibliotheques-mel", "recordid": "fab1d8146ae26222d276ca52de67f07526aa7c2c", "fields": {"ville": "FRELINGHIEN", "geometry": {"coordinates": [2.9324587245437, 50.712866706559], "type": "Point"}, "geo_point_2d": [50.712866706559, 2.9324587245437], "objectid": "23", "libelle": "Mediatheque", "code_postal": "59236", "horairesosm": "Tu 16:00-18:00; We 10:00-12:00,14:30-17:30; Fr 15:00-18:00; Sa 10:00-12:00,14:30-17:00", "adresse": "place des Combattants"}, "geometry": {"type": "Point", "coordinates": [2.9324587245437, 50.712866706559]}, "record_timestamp": "2022-06-02T04:00:01.376+02:00"},{"datasetid": "bibliotheques-mel", "recordid": "85cb002efe9d3d2878e365a6bb3fcc4c501a0e0d", "fields": {"ville": "HALLENNES LEZ HAUBOURDIN", "geometry": {"coordinates": [2.9625927063613, 50.613573433925], "type": "Point"}, "geo_point_2d": [50.613573433925, 2.9625927063613], "objectid": "26", "libelle": "Bibliotheque", "code_postal": "59320", "horairesosm": "Mo 15:00-17:00; Tu 16:30-18:00; We 11:00-12:00; Th 16:00-17:00; Fr 16:30-19:00", "adresse": "51 rue Leon Gambettta"}, "geometry": {"type": "Point", "coordinates": [2.9625927063613, 50.613573433925]}, "record_timestamp": "2022-06-02T04:00:01.376+02:00"},{"datasetid": "bibliotheques-mel", "recordid": "bd01a8aed539cfa5c82841a177e6ad78781aabd5", "fields": {"ville": "HEM", "geometry": {"coordinates": [3.1862659509124, 50.652906637828], "type": "Point"}, "geo_point_2d": [50.652906637828, 3.1862659509124], "objectid": "32", "libelle": "Mediatheque", "code_postal": "59110", "horairesosm": "Tu 16:30-19:00; We,Sa 10:00-12:00,14:30-17:30; Th 10:00-12:00; Fr 15:00-17:30", "adresse": "1 rue du General Leclerc"}, "geometry": {"type": "Point", "coordinates": [3.1862659509124, 50.652906637828]}, "record_timestamp": "2022-06-02T04:00:01.376+02:00"},{"datasetid": "bibliotheques-mel", "recordid": "8a7ded12c38fd7c123cbf5f84c456e29ea97cb5f", "fields": {"ville": "LAMBERSART", "geometry": {"coordinates": [3.0128249696855, 50.65178402285], "type": "Point"}, "geo_point_2d": [50.65178402285, 3.0128249696855], "objectid": "45", "libelle": "Bibliotheque pour tous Eugene Duthoit", "code_postal": "59130", "horairesosm": "Tu,We 16:00-18:00;Sa 14:00-16:00; SH Tu off", "adresse": "39 rue Henri de Moraes"}, "geometry": {"type": "Point", "coordinates": [3.0128249696855, 50.65178402285]}, "record_timestamp": "2022-06-02T04:00:01.376+02:00"},{"datasetid": "bibliotheques-mel", "recordid": "bd471410f6e4d375b9c19806e434ac96815c73b0", "fields": {"ville": "LANNOY", "geometry": {"coordinates": [3.2089185636761, 50.667402177135], "type": "Point"}, "geo_point_2d": [50.667402177135, 3.2089185636761], "objectid": "46", "libelle": "Mediatheque Alexandre Jardin", "code_postal": "59390", "horairesosm": "Tu 09:00-12:00; We 09:00-12:00,14:00-18:30; Fr 14:30-18:00; Sa 09:00-12:00,14:00-17:00", "adresse": "31 rue des Remparts"}, "geometry": {"type": "Point", "coordinates": [3.2089185636761, 50.667402177135]}, "record_timestamp": "2022-06-02T04:00:01.376+02:00"},{"datasetid": "bibliotheques-mel", "recordid": "f1c7c42cdfa936322650b095a7b0a2ec9b2de407", "fields": {"ville": "LILLE", "geometry": {"coordinates": [3.087647108598, 50.643293274055], "type": "Point"}, "geo_point_2d": [50.643293274055, 3.087647108598], "objectid": "167", "libelle": "Mediatheque Saint Maurice Pellevoisin", "code_postal": "59000", "horairesosm": "Tu,Th,Fr 14:00-18:00; We,Sa 10:00-13:00,14:00-18:00", "adresse": "205 bis rue du Faubourg de Roubaix"}, "geometry": {"type": "Point", "coordinates": [3.087647108598, 50.643293274055]}, "record_timestamp": "2022-06-02T04:00:01.376+02:00"},{"datasetid": "bibliotheques-mel", "recordid": "d5e647bfefb04c95b8b96a22eed2e4a56201c79d", "fields": {"ville": "LOOS LEZ LILLE", "geometry": {"coordinates": [3.0135602148184, 50.615187849311], "type": "Point"}, "geo_point_2d": [50.615187849311, 3.0135602148184], "objectid": "64", "libelle": "Bibliotheque Jean Monnet", "code_postal": "59120", "horairesosm": "Tu,Fr 14:00-18:30; We 09:00-12:00,14:00-18:30", "adresse": "3 Square Jean Monnet BP 109"}, "geometry": {"type": "Point", "coordinates": [3.0135602148184, 50.615187849311]}, "record_timestamp": "2022-06-02T04:00:01.376+02:00"},{"datasetid": "bibliotheques-mel", "recordid": "b4601cd9916db174c1835d68287edd2b10ae980f", "fields": {"ville": "LYS LEZ LANNOY", "geometry": {"coordinates": [3.2104928633926, 50.674626816864], "type": "Point"}, "geo_point_2d": [50.674626816864, 3.2104928633926], "objectid": "66", "libelle": "Mediatheque Agora", "code_postal": "59390", "horairesosm": "Tu 14:00-18:00; We 10:00-12:30,14:00-18:00; Th 14:00-17:30; Fr 10:00-12:30,14:00-17:30; Sa,Su 10:00-12:30,14:00-17:00", "adresse": "199 Avenue Paul Bert"}, "geometry": {"type": "Point", "coordinates": [3.2104928633926, 50.674626816864]}, "record_timestamp": "2022-06-02T04:00:01.376+02:00"},{"datasetid": "bibliotheques-mel", "recordid": "579f29dcf789797f7f6d9a40a30f924de6718396", "fields": {"ville": "MARCQ EN BAROEUL", "geometry": {"coordinates": [3.0930414939541, 50.678703379514], "type": "Point"}, "geo_point_2d": [50.678703379514, 3.0930414939541], "objectid": "67", "libelle": "Mediatheque La Corderie", "code_postal": "59700", "horairesosm": "Tu 14:00-19:00; We,Sa 10:00-13:00,14:00-18:00; Fr 14:00-18:00", "adresse": "56 rue Albert Bailly"}, "geometry": {"type": "Point", "coordinates": [3.0930414939541, 50.678703379514]}, "record_timestamp": "2022-06-02T04:00:01.376+02:00"},{"datasetid": "bibliotheques-mel", "recordid": "d917079510f14464f532dfd9865deca08fde13cc", "fields": {"ville": "MARCQ EN BAROEUL", "geometry": {"coordinates": [3.1035672854071, 50.668219432314], "type": "Point"}, "geo_point_2d": [50.668219432314, 3.1035672854071], "objectid": "168", "libelle": "Bibliotheque Lire au Croise", "code_postal": "59700", "adresse": "21 avenue de la Marne"}, "geometry": {"type": "Point", "coordinates": [3.1035672854071, 50.668219432314]}, "record_timestamp": "2022-06-02T04:00:01.376+02:00"},{"datasetid": "bibliotheques-mel", "recordid": "25440f673d9b60e9a2c00b7fa19a11e077f50d47", "fields": {"ville": "NEUVILLE EN FERRAIN", "geometry": {"coordinates": [3.1789993742005, 50.750785887035], "type": "Point"}, "geo_point_2d": [50.750785887035, 3.1789993742005], "objectid": "74", "libelle": "Bibliotheque pour tous", "code_postal": "59960", "horairesosm": "Tu,Th 16:30-18:30; We 10:00-12:00,15:00-17:00; Sa,Su 10:00-12:00", "adresse": "118 rue du Chemin Vert"}, "geometry": {"type": "Point", "coordinates": [3.1789993742005, 50.750785887035]}, "record_timestamp": "2022-06-02T04:00:01.376+02:00"},{"datasetid": "bibliotheques-mel", "recordid": "360d48ec9f7f7f78ac2269958a7dad70d835f828", "fields": {"ville": "ENGLOS", "geometry": {"coordinates": [2.9571903914646, 50.626276378635], "type": "Point"}, "geo_point_2d": [50.626276378635, 2.9571903914646], "objectid": "10118", "libelle": "Mediatheque", "code_postal": "59320", "horairesosm": "Tu 17:00-19:00; We 15:30-18:30; Fr 16:00-18:00; Sa 10:00-12:00", "adresse": "22 Rue Paul Procureur"}, "geometry": {"type": "Point", "coordinates": [2.9571903914646, 50.626276378635]}, "record_timestamp": "2022-06-02T04:00:01.376+02:00"},{"datasetid": "bibliotheques-mel", "recordid": "5a70223e8fb34cf6d1c784d447c4e5ee77690fb5", "fields": {"ville": "HALLUIN", "geometry": {"coordinates": [3.1250114975907, 50.779947439919], "type": "Point"}, "geo_point_2d": [50.779947439919, 3.1250114975907], "objectid": "572", "libelle": "Bibliotheque", "code_postal": "59250", "horairesosm": "Mo 13:30-17:00; Tu-Fr 15:30-18:30; We 09:00-12:30,13:30-18:30; Sa 09:00-12:30,13:30-17:00", "adresse": "142 Rue de Lille"}, "geometry": {"type": "Point", "coordinates": [3.1250114975907, 50.779947439919]}, "record_timestamp": "2022-06-02T04:00:01.376+02:00"},{"datasetid": "bibliotheques-mel", "recordid": "e401876b7819029017c65ae8a22147a0f5efe82e", "fields": {"ville": "VILLENEUVE D'ASCQ", "geometry": {"coordinates": [3.1447826992067, 50.621027403886], "type": "Point"}, "geo_point_2d": [50.621027403886, 3.1447826992067], "objectid": "108", "libelle": "Bibliotheque et Musicotheque pour tous", "code_postal": "59650", "horairesosm": "Tu 15:30-18:00; We 10:00-12:00,16:00-18:00; Th,Fr 15:30-18:00; Sa 15:00-17:30; Su 10:30-12:00", "adresse": "3 place de Verdun (Residence)"}, "geometry": {"type": "Point", "coordinates": [3.1447826992067, 50.621027403886]}, "record_timestamp": "2022-06-02T04:00:01.376+02:00"},{"datasetid": "bibliotheques-mel", "recordid": "53f8c0154853a86fef524ddf0b0f2e496164544e", "fields": {"ville": "WERVICQ SUD", "geometry": {"coordinates": [3.0484679275911, 50.773010822221], "type": "Point"}, "geo_point_2d": [50.773010822221, 3.0484679275911], "objectid": "120", "libelle": "Mediatheque", "code_postal": "59117", "horairesosm": "Tu,Fr 14:00-18:00; We 08:30-12:00,14:00-18:00;Sa 09:00-12:00,14:00-17:00", "adresse": "Avenue des Sports"}, "geometry": {"type": "Point", "coordinates": [3.0484679275911, 50.773010822221]}, "record_timestamp": "2022-06-02T04:00:01.376+02:00"},{"datasetid": "bibliotheques-mel", "recordid": "9e2c1a57a8241a2b3b33dcc0ad2602e45389bfc6", "fields": {"ville": "RONCHIN", "geometry": {"coordinates": [3.0776027567931, 50.605741130707], "type": "Point"}, "geo_point_2d": [50.605741130707, 3.0776027567931], "objectid": "81", "libelle": "Bibliotheque Municipale", "code_postal": "59790", "horairesosm": "Tu,Th,Fr 15:00-18:30; We 09:00-12:00,14:00-18:30; Sa 14:00-18:30", "adresse": "650 Avenue Jean Jaures"}, "geometry": {"type": "Point", "coordinates": [3.0776027567931, 50.605741130707]}, "record_timestamp": "2022-06-02T04:00:01.376+02:00"},{"datasetid": "bibliotheques-mel", "recordid": "9272ca06dd21cbac140547eeb04ab286c3754817", "fields": {"ville": "SAINT ANDRE LEZ LILLE", "geometry": {"coordinates": [3.0500310322257, 50.66044312209], "type": "Point"}, "geo_point_2d": [50.66044312209, 3.0500310322257], "objectid": "88", "libelle": "La BidOtheque", "code_postal": "59350", "horairesosm": "Tu 10:00-11:30; We 14:00-19:00; Fr 16:30-19:00", "adresse": "23 rue Alsace Lorraine"}, "geometry": {"type": "Point", "coordinates": [3.0500310322257, 50.66044312209]}, "record_timestamp": "2022-06-02T04:00:01.376+02:00"},{"datasetid": "bibliotheques-mel", "recordid": "8ff50b331a039cce452e0a0fde3128bb469cf37a", "fields": {"ville": "TOURCOING", "geometry": {"coordinates": [3.1594631292026, 50.716717103669], "type": "Point"}, "geo_point_2d": [50.716717103669, 3.1594631292026], "objectid": "95", "libelle": "Mediatheque Andre-Malraux", "code_postal": "59208", "horairesosm": "Tu,Fr 13:00-18:30; We,Th 10:00-18:30; Sa 10:00-17:30", "adresse": "26 rue Famelard BP 599"}, "geometry": {"type": "Point", "coordinates": [3.1594631292026, 50.716717103669]}, "record_timestamp": "2022-06-02T04:00:01.376+02:00"},{"datasetid": "bibliotheques-mel", "recordid": "72023288ce0e23dde8a830d513a50690beadaf01", "fields": {"ville": "TRESSIN", "geometry": {"coordinates": [3.1919259602251, 50.616867910807], "type": "Point"}, "geo_point_2d": [50.616867910807, 3.1919259602251], "objectid": "99", "libelle": "Bibliotheque", "code_postal": "59152", "horairesosm": "Tu 17:00-19:30; We 16:00-17:30; Th 17:00-18:30; Sa 15:30-17:30", "adresse": "4 rue du Marechal Leclerc"}, "geometry": {"type": "Point", "coordinates": [3.1919259602251, 50.616867910807]}, "record_timestamp": "2022-06-02T04:00:01.376+02:00"},{"datasetid": "bibliotheques-mel", "recordid": "6355a125230151ed1d35abcd5bd8b650c022c9dc", "fields": {"ville": "FRETIN", "geometry": {"coordinates": [3.1348899428885, 50.559322450644], "type": "Point"}, "geo_point_2d": [50.559322450644, 3.1348899428885], "objectid": "24", "libelle": "Bibliotheque", "code_postal": "59273", "horairesosm": "Tu 16:30-19:00; We 09:00-12:30,14:00-18:00; Th,Fr 16:30-18:00; Sa 09:00-12:30,14:00-17:00", "adresse": "3 rue Alfred Cousin"}, "geometry": {"type": "Point", "coordinates": [3.1348899428885, 50.559322450644]}, "record_timestamp": "2022-06-02T04:00:01.376+02:00"},{"datasetid": "bibliotheques-mel", "recordid": "462595647b9b6506c4ccbabbc6c83393045e529f", "fields": {"ville": "HANTAY", "geometry": {"coordinates": [2.8678189137552, 50.53358857463], "type": "Point"}, "geo_point_2d": [50.53358857463, 2.8678189137552], "objectid": "28", "libelle": "Bibliotheque", "code_postal": "59496", "horairesosm": "Tu,Th 18:00-19:00; SH Th 18:00-19:00", "adresse": "20 Rue Mirabeau"}, "geometry": {"type": "Point", "coordinates": [2.8678189137552, 50.53358857463]}, "record_timestamp": "2022-06-02T04:00:01.376+02:00"},{"datasetid": "bibliotheques-mel", "recordid": "9adf55387af396e012d22458e14cfb8d98740afb", "fields": {"ville": "LILLE", "geometry": {"coordinates": [3.0445542525595, 50.627709247653], "type": "Point"}, "geo_point_2d": [50.627709247653, 3.0445542525595], "objectid": "51", "libelle": "Bibliotheque pour tous Nord-Flandre", "code_postal": "59000", "adresse": "84 rue des Stations"}, "geometry": {"type": "Point", "coordinates": [3.0445542525595, 50.627709247653]}, "record_timestamp": "2022-06-02T04:00:01.376+02:00"},{"datasetid": "bibliotheques-mel", "recordid": "2647575e8fb192e6cc1837e5d1acf2922e6d0f47", "fields": {"ville": "LILLE", "geometry": {"coordinates": [3.0893516562225, 50.631292222516], "type": "Point"}, "geo_point_2d": [50.631292222516, 3.0893516562225], "objectid": "54", "libelle": "Mediatheque de Fives", "code_postal": "59800", "horairesosm": "Tu,Th,Fr 14:00-18:00; We,Sa 10:00-13:00,14:00-18:00", "adresse": "18 Rue Bourgembois"}, "geometry": {"type": "Point", "coordinates": [3.0893516562225, 50.631292222516]}, "record_timestamp": "2022-06-02T04:00:01.376+02:00"},{"datasetid": "bibliotheques-mel", "recordid": "58af78df43d68ed1f1cc10a8ba808e491246a4f6", "fields": {"ville": "LILLE", "geometry": {"coordinates": [3.0513975743694, 50.624870226416], "type": "Point"}, "geo_point_2d": [50.624870226416, 3.0513975743694], "objectid": "58", "libelle": "Mediatheque de Wazemmes", "code_postal": "59000", "horairesosm": "Tu,Th,Fr 14:00-18:00; We,Sa 10:00-13:00,14:00-18:00", "adresse": "134 rue de l'Abbe Aerts"}, "geometry": {"type": "Point", "coordinates": [3.0513975743694, 50.624870226416]}, "record_timestamp": "2022-06-02T04:00:01.376+02:00"},{"datasetid": "bibliotheques-mel", "recordid": "ec8b5213f348d6aebcf47ff27146dd47529f08a7", "fields": {"ville": "NOYELLES LEZ SECLIN", "geometry": {"coordinates": [3.0165236801217, 50.577687110584], "type": "Point"}, "geo_point_2d": [50.577687110584, 3.0165236801217], "objectid": "75", "libelle": "Mediatheque Louis Seraphin", "code_postal": "59139", "horairesosm": "Tu 16:00-17:30; We 17:30-18:30; Sa,Su 11:30-12:30", "adresse": "Place de l'Eglise"}, "geometry": {"type": "Point", "coordinates": [3.0165236801217, 50.577687110584]}, "record_timestamp": "2022-06-02T04:00:01.376+02:00"},{"datasetid": "bibliotheques-mel", "recordid": "b4ca7b81c565adff454d6bbfc61f1b56e7ae3dcb", "fields": {"ville": "PREMESQUES", "geometry": {"coordinates": [2.9511411172988, 50.657001934259], "type": "Point"}, "geo_point_2d": [50.657001934259, 2.9511411172988], "objectid": "79", "libelle": "Bibliotheque pour tous", "code_postal": "59840", "horairesosm": "We 15:00-18:00; Sa 10:00-12:00,14:30-17:30", "adresse": "258 Rue du retour"}, "geometry": {"type": "Point", "coordinates": [2.9511411172988, 50.657001934259]}, "record_timestamp": "2022-06-02T04:00:01.376+02:00"},{"datasetid": "bibliotheques-mel", "recordid": "f0159ed3522355214768d9145c20bdcc680077fd", "fields": {"ville": "AUBERS", "geometry": {"coordinates": [2.8289037999986, 50.596971899959], "type": "Point"}, "geo_point_2d": [50.596971899959, 2.8289037999986], "objectid": "123", "libelle": "Mediatheque d'Aubers", "code_postal": "59249", "horairesosm": "We 15:00-18:30; Fr 16:00-18:00; Sa 10:00-12:00", "adresse": "rue d'Houdringue (a cote de l'ecole du Bois Leval)"}, "geometry": {"type": "Point", "coordinates": [2.8289037999986, 50.596971899959]}, "record_timestamp": "2022-06-02T04:00:01.376+02:00"},{"datasetid": "bibliotheques-mel", "recordid": "aced529301c6a8010acb9505a7d0beb49d0b2c26", "fields": {"ville": "COMINES", "geometry": {"coordinates": [3.0021610457733, 50.761322772678], "type": "Point"}, "geo_point_2d": [50.761322772678, 3.0021610457733], "objectid": "19780", "libelle": "Mediatheque Ducarin", "code_postal": "59560", "horairesosm": "Tu,Th,Fr 14:00-18:00; We 10:00-12:00,14:00-18:00; Sa 10:00-17:00; Su 10:00-12:00", "adresse": "34 Rue du Quesnoy"}, "geometry": {"type": "Point", "coordinates": [3.0021610457733, 50.761322772678]}, "record_timestamp": "2022-06-02T04:00:01.376+02:00"},{"datasetid": "bibliotheques-mel", "recordid": "4dbedbaf592939ed10d6c3014ef891fafb4ba1be", "fields": {"ville": "LOOS", "geometry": {"coordinates": [3.0371656179171, 50.603225481155], "type": "Point"}, "geo_point_2d": [50.603225481155, 3.0371656179171], "objectid": "23324", "libelle": "SCD Universite LILLE 2 - Bibliotheque de medecine Pole Formation", "horairesosm": "Mo-Fr 08:00-23:00; Sa 09:00-17:00", "adresse": "Avenue Eugene Avinee"}, "geometry": {"type": "Point", "coordinates": [3.0371656179171, 50.603225481155]}, "record_timestamp": "2022-06-02T04:00:01.376+02:00"},{"datasetid": "bibliotheques-mel", "recordid": "1159f637ccdfb267835a55cdbc1d17861b5f70d8", "fields": {"ville": "SEQUEDIN", "geometry": {"coordinates": [2.9868779361234, 50.623955144658], "type": "Point"}, "geo_point_2d": [50.623955144658, 2.9868779361234], "objectid": "1621", "libelle": "Mediatheque", "code_postal": "59320", "horairesosm": "Tu,Th,Fr 15:00-18:30; Sa 10:00-16:00", "adresse": "9 rue Carnot"}, "geometry": {"type": "Point", "coordinates": [2.9868779361234, 50.623955144658]}, "record_timestamp": "2022-06-02T04:00:01.376+02:00"},{"datasetid": "bibliotheques-mel", "recordid": "c2a7abfa5df2d1a5eb1c37ae891d194935a897ef", "fields": {"ville": "WAMBRECHIES", "geometry": {"coordinates": [3.0547477181155, 50.686523446422], "type": "Point"}, "geo_point_2d": [50.686523446422, 3.0547477181155], "objectid": "112", "libelle": "Bibliotheque associative", "code_postal": "59118", "horairesosm": "We 15:00-17:00; Fr 17:30-19:00; Sa,Su 10:00-12:00", "adresse": "Chateau de Robersart, avenue de Robersart"}, "geometry": {"type": "Point", "coordinates": [3.0547477181155, 50.686523446422]}, "record_timestamp": "2022-06-02T04:00:01.376+02:00"},{"datasetid": "bibliotheques-mel", "recordid": "86e1a49a57c032d90b337dcf35b315462335dbe5", "fields": {"ville": "WATTRELOS", "geometry": {"coordinates": [3.2162591277309, 50.702285363589], "type": "Point"}, "geo_point_2d": [50.702285363589, 3.2162591277309], "objectid": "116", "libelle": "Bibliotheque Centrale", "code_postal": "59393", "horairesosm": "Tu,Fr 13:30-18:00; We,Th 09:30-12:00,13:30-18:00; Sa 09:30-17:00", "adresse": "2 rue Emile Basly BP 109"}, "geometry": {"type": "Point", "coordinates": [3.2162591277309, 50.702285363589]}, "record_timestamp": "2022-06-02T04:00:01.376+02:00"},{"datasetid": "bibliotheques-mel", "recordid": "ba64bb762ac02b8607b059b479db1a41e2ce76bc", "fields": {"ville": "WAVRIN", "geometry": {"coordinates": [2.9440926557464, 50.565454233325], "type": "Point"}, "geo_point_2d": [50.565454233325, 2.9440926557464], "objectid": "119", "libelle": "Bibliotheque pour tous", "code_postal": "59136", "horairesosm": "Mo 16:00-18:00; We 14:00-16:30; Sa 15:30-18:00", "adresse": "rue Roger Salengro"}, "geometry": {"type": "Point", "coordinates": [2.9440926557464, 50.565454233325]}, "record_timestamp": "2022-06-02T04:00:01.376+02:00"},{"datasetid": "bibliotheques-mel", "recordid": "f6af9efd719b7ae74a27a87051afb03662b0f567", "fields": {"ville": "SAINGHIN EN MELANTOIS", "geometry": {"coordinates": [3.1672622995073, 50.587557646941], "type": "Point"}, "geo_point_2d": [50.587557646941, 3.1672622995073], "objectid": "86", "libelle": "Bibliotheque pour tous", "code_postal": "59262", "horairesosm": "Mo,Tu 17:00-19:00; We,Sa 10:00-12:00; Fr 16:30-19:00", "adresse": "222 rue du Marechel Leclerc"}, "geometry": {"type": "Point", "coordinates": [3.1672622995073, 50.587557646941]}, "record_timestamp": "2022-06-02T04:00:01.376+02:00"},{"datasetid": "bibliotheques-mel", "recordid": "ab629773251d0b02c8e00e605879a56b9e9fffe0", "fields": {"ville": "SAINGHIN EN WEPPES", "geometry": {"coordinates": [2.8989547564991, 50.562727238597], "type": "Point"}, "geo_point_2d": [50.562727238597, 2.8989547564991], "objectid": "87", "libelle": "Bibliotheque de l'association du local club des jeunes", "code_postal": "59184", "adresse": "Place du General de Gaulle"}, "geometry": {"type": "Point", "coordinates": [2.8989547564991, 50.562727238597]}, "record_timestamp": "2022-06-02T04:00:01.376+02:00"},{"datasetid": "bibliotheques-mel", "recordid": "44492ee90ca557fc214b734797674e96953b8014", "fields": {"ville": "TOURCOING", "geometry": {"coordinates": [3.1443118591403, 50.729710814567], "type": "Point"}, "geo_point_2d": [50.729710814567, 3.1443118591403], "objectid": "97", "libelle": "Mediatheque Andree Chedid", "code_postal": "59200", "horairesosm": "Tu,Fr 16:00-18:30; We,Sa 10:00-12:30,13:30-18:30", "adresse": "156 avenue Fin de la Guerre"}, "geometry": {"type": "Point", "coordinates": [3.1443118591403, 50.729710814567]}, "record_timestamp": "2022-06-02T04:00:01.376+02:00"},{"datasetid": "bibliotheques-mel", "recordid": "4ae23ec8dc4a40ea80718d69fbd1183cabca4eaa", "fields": {"ville": "VENDEVILLE", "geometry": {"coordinates": [3.0786025452141, 50.574463328659], "type": "Point"}, "geo_point_2d": [50.574463328659, 3.0786025452141], "objectid": "100", "libelle": "Bibliotheque", "code_postal": "59175", "horairesosm": "Tu 16:30-19:00; We 10:00-12:30,14:30-18:00; Fr 16:30-19:00; Sa 09:00-12:30", "adresse": "Rue du Guet"}, "geometry": {"type": "Point", "coordinates": [3.0786025452141, 50.574463328659]}, "record_timestamp": "2022-06-02T04:00:01.376+02:00"},{"datasetid": "bibliotheques-mel", "recordid": "22f3ad64da696f82adaecbf9559db799fcfb8fba", "fields": {"ville": "ARMENTIERES", "geometry": {"coordinates": [2.8791081393198, 50.682375539966], "type": "Point"}, "geo_point_2d": [50.682375539966, 2.8791081393198], "objectid": "2", "libelle": "Mediatheque L'\u001aAlbatros", "code_postal": "59280", "horairesosm": "Tu 14:00-18:00; We 10:00-12:00,14:00-18:00; Fr 10:00-12:00,14:00-19:00; Sa 10:00-12:00,14:00-17:00; Su 10:00-13:00", "adresse": "Rue Paul Pouchain"}, "geometry": {"type": "Point", "coordinates": [2.8791081393198, 50.682375539966]}, "record_timestamp": "2022-06-02T04:00:01.376+02:00"},{"datasetid": "bibliotheques-mel", "recordid": "edc698b39f98be3a9e1de884e3d8c71407a0e8ae", "fields": {"ville": "CHERENG", "geometry": {"coordinates": [3.2070679921118, 50.605301829687], "type": "Point"}, "geo_point_2d": [50.605301829687, 3.2070679921118], "objectid": "8", "libelle": "Bibliotheque pour tous", "code_postal": "59152", "horairesosm": "Tu 17:00-19:00; Sa 16:30-18:30", "adresse": "Rue J Ochin"}, "geometry": {"type": "Point", "coordinates": [3.2070679921118, 50.605301829687]}, "record_timestamp": "2022-06-02T04:00:01.376+02:00"},{"datasetid": "bibliotheques-mel", "recordid": "2d47a47812ffc304f8313d23aeacfa684568ca36", "fields": {"ville": "CROIX", "geometry": {"coordinates": [3.1538031088869, 50.684273829954], "type": "Point"}, "geo_point_2d": [50.684273829954, 3.1538031088869], "objectid": "10", "libelle": "Bibliotheque pour tous Saint Pierre", "code_postal": "59170", "horairesosm": "Tu,Fr 09:30-11:30; We 09:30-11:30,16:00-17:30; Sa,Su 10:00-12:00", "adresse": "28 place de la Liberte"}, "geometry": {"type": "Point", "coordinates": [3.1538031088869, 50.684273829954]}, "record_timestamp": "2022-06-02T04:00:01.376+02:00"},{"datasetid": "bibliotheques-mel", "recordid": "993c039b5978298bb1a72f7d97bf019fb80ff9ab", "fields": {"ville": "CROIX", "geometry": {"coordinates": [3.1507141575034, 50.687456899497], "type": "Point"}, "geo_point_2d": [50.687456899497, 3.1507141575034], "objectid": "12", "libelle": "Bibliotheque pour tous Mackellerie", "code_postal": "59170", "horairesosm": "Sa 14:00-15:30", "adresse": "35 rue Louis Seigneur"}, "geometry": {"type": "Point", "coordinates": [3.1507141575034, 50.687456899497]}, "record_timestamp": "2022-06-02T04:00:01.376+02:00"},{"datasetid": "bibliotheques-mel", "recordid": "df731a6298b53447b12f2a070e73b442c8ab990c", "fields": {"ville": "FACHES THUMESNIL", "geometry": {"coordinates": [3.067819034028, 50.601252382228], "type": "Point"}, "geo_point_2d": [50.601252382228, 3.067819034028], "objectid": "20", "libelle": "Mediatheque Marguerite Yourcenar", "code_postal": "59155", "horairesosm": "Tu 16:00-19:00; We,Sa 10:00-12:00,14:00-18:00; Th,Fr 14:00-18:00", "adresse": "199 Rue Carnot"}, "geometry": {"type": "Point", "coordinates": [3.067819034028, 50.601252382228]}, "record_timestamp": "2022-06-02T04:00:01.376+02:00"},{"datasetid": "bibliotheques-mel", "recordid": "a926c2bbae9b5669a23c34f8326fbd42c5082557", "fields": {"ville": "GRUSON", "geometry": {"coordinates": [3.2050713554054, 50.596244928874], "type": "Point"}, "geo_point_2d": [50.596244928874, 3.2050713554054], "objectid": "25", "libelle": "Bibliotheque pour tous", "code_postal": "59152", "horairesosm": "We 10:30-12:00", "adresse": "3 rue de Verdun"}, "geometry": {"type": "Point", "coordinates": [3.2050713554054, 50.596244928874]}, "record_timestamp": "2022-06-02T04:00:01.376+02:00"},{"datasetid": "bibliotheques-mel", "recordid": "c547c41b8ecf1c3dcc683ab53f5fc9a8b9ace8c5", "fields": {"ville": "HAUBOURDIN", "geometry": {"coordinates": [2.9904497595518, 50.610380061804], "type": "Point"}, "geo_point_2d": [50.610380061804, 2.9904497595518], "objectid": "29", "libelle": "Bibliotheque Municipale", "code_postal": "59320", "horairesosm": "Tu,Fr 14:00-18:00; We 10:00-12:00,14:00-18:00; Sa 10:00-12:00,14:00-17:00", "adresse": "38 rue Pasteur"}, "geometry": {"type": "Point", "coordinates": [2.9904497595518, 50.610380061804]}, "record_timestamp": "2022-06-02T04:00:01.376+02:00"},{"datasetid": "bibliotheques-mel", "recordid": "272ba510e3fc759d8e85efcdde066cef8f0e6ed1", "fields": {"ville": "HOUPLIN ANCOISNE", "geometry": {"coordinates": [2.990287771453, 50.573626587089], "type": "Point"}, "geo_point_2d": [50.573626587089, 2.990287771453], "objectid": "34", "libelle": "Mediatheque Marcel Pagnol", "code_postal": "59263", "horairesosm": "Tu 17:00-18:30; We 10:00-18:00; Fr 09:00-11:00,14:30-18:00; Sa 09:00-12:30", "adresse": "69 rue Jean Jaures"}, "geometry": {"type": "Point", "coordinates": [2.990287771453, 50.573626587089]}, "record_timestamp": "2022-06-02T04:00:01.376+02:00"},{"datasetid": "bibliotheques-mel", "recordid": "f97f6dcabcaf265f129337412f4409e019537f6a", "fields": {"ville": "HOUPLINES", "geometry": {"coordinates": [2.9131422518136, 50.690625081764], "type": "Point"}, "geo_point_2d": [50.690625081764, 2.9131422518136], "objectid": "35", "libelle": "Bibliotheque", "code_postal": "59116", "horairesosm": "Tu,Th 12:00,14:00-18:00; We 09:00-12:00,14:00-18:00; Fr 12:00,15:00-19:00; Sa 10:00-13:00", "adresse": "51 Rue Roger Salengro"}, "geometry": {"type": "Point", "coordinates": [2.9131422518136, 50.690625081764]}, "record_timestamp": "2022-06-02T04:00:01.376+02:00"},{"datasetid": "bibliotheques-mel", "recordid": "788246a4202c4e297c6ea2e7fda307cc6259b26a", "fields": {"ville": "ILLIES", "geometry": {"coordinates": [2.8326437544791, 50.561514022603], "type": "Point"}, "geo_point_2d": [50.561514022603, 2.8326437544791], "objectid": "36", "libelle": "Bibliotheque Municipale d'Illies", "code_postal": "59480", "horairesosm": "We 10:00-12:00", "adresse": "15 rue du Chanoine Rigaut"}, "geometry": {"type": "Point", "coordinates": [2.8326437544791, 50.561514022603]}, "record_timestamp": "2022-06-02T04:00:01.376+02:00"},{"datasetid": "bibliotheques-mel", "recordid": "82b64ec43edcf8dfd7da3a5f8d0fbedee6344496", "fields": {"ville": "LA MADELEINE", "geometry": {"coordinates": [3.0684358187478, 50.655269217969], "type": "Point"}, "geo_point_2d": [50.655269217969, 3.0684358187478], "objectid": "166", "libelle": "La Mediatheque de La Madeleine", "code_postal": "59110", "horairesosm": "Tu 14:00-19:00; We,Fr,Sa 10:00-18:00", "adresse": "72 rue Gambetta"}, "geometry": {"type": "Point", "coordinates": [3.0684358187478, 50.655269217969]}, "record_timestamp": "2022-06-02T04:00:01.376+02:00"},{"datasetid": "bibliotheques-mel", "recordid": "494d0c9484c94af0cd68c0ec2349ffe78a17b5bb", "fields": {"ville": "LAMBERSART", "geometry": {"coordinates": [3.0401234564502, 50.652263745839], "type": "Point"}, "geo_point_2d": [50.652263745839, 3.0401234564502], "objectid": "41", "libelle": "Bibliotheque du centre culturel du Canon d'Or", "code_postal": "59130", "horairesosm": "Mo,Sa 14:30-16:30; We 09:30-11:45,14:30-18:00", "adresse": "152 rue de Lille"}, "geometry": {"type": "Point", "coordinates": [3.0401234564502, 50.652263745839]}, "record_timestamp": "2022-06-02T04:00:01.376+02:00"},{"datasetid": "bibliotheques-mel", "recordid": "04f47e7b56f5918445f1d37cb6e12e3482594b6f", "fields": {"ville": "LAMBERSART", "geometry": {"coordinates": [3.0190946016785, 50.657624997407], "type": "Point"}, "geo_point_2d": [50.657624997407, 3.0190946016785], "objectid": "44", "libelle": "Bibliotheque pour tous de la ferme du Mont Garin", "code_postal": "59130", "horairesosm": "Tu 15:30-17:30; Sa,Su 10:30-12:00", "adresse": "210 route de Verlinghem"}, "geometry": {"type": "Point", "coordinates": [3.0190946016785, 50.657624997407]}, "record_timestamp": "2022-06-02T04:00:01.376+02:00"},{"datasetid": "bibliotheques-mel", "recordid": "dcdb38306e3efe62fcf394abd1d78ff64db7c24c", "fields": {"ville": "LILLE", "geometry": {"coordinates": [3.0369813031583, 50.620042222121], "type": "Point"}, "geo_point_2d": [50.620042222121, 3.0369813031583], "objectid": "52", "libelle": "Mediatheque du Faubourg de Bethune", "code_postal": "59000", "horairesosm": "Tu,Th,Fr 14:00-18:00; We,Sa 10:00-13:00,14:00-18:00; PH off; SH Tu-Sa 14:00-18:00", "adresse": "6 bis boulevard de Metz, square Frederic Chopin"}, "geometry": {"type": "Point", "coordinates": [3.0369813031583, 50.620042222121]}, "record_timestamp": "2022-06-02T04:00:01.376+02:00"},{"datasetid": "bibliotheques-mel", "recordid": "553ff7ff8efbc4eb57c81a67fdf0b09fab065b2e", "fields": {"ville": "LILLE", "geometry": {"coordinates": [3.0544752256623, 50.610025047528], "type": "Point"}, "geo_point_2d": [50.610025047528, 3.0544752256623], "objectid": "55", "libelle": "Mediatheque de Lille-Sud", "code_postal": "59000", "horairesosm": "Tu,Th,Fr 14:00-18:00; We,Sa 10:00-13:00,14:00-18:00", "adresse": "11 Rue d'Asie"}, "geometry": {"type": "Point", "coordinates": [3.0544752256623, 50.610025047528]}, "record_timestamp": "2022-06-02T04:00:01.376+02:00"},{"datasetid": "bibliotheques-mel", "recordid": "66c79abd2a9ffda18cf79886972537c75f450c06", "fields": {"ville": "LILLE", "geometry": {"coordinates": [3.0713839253496, 50.619480189909], "type": "Point"}, "geo_point_2d": [50.619480189909, 3.0713839253496], "objectid": "56", "libelle": "Mediatheque de Moulins", "code_postal": "59000", "horairesosm": "Tu,Th,Fr 14:00-18:00; We,Sa 10:00-13:00,14:00-18:00", "adresse": "8 Allee de la Filature"}, "geometry": {"type": "Point", "coordinates": [3.0713839253496, 50.619480189909]}, "record_timestamp": "2022-06-02T04:00:01.376+02:00"},{"datasetid": "bibliotheques-mel", "recordid": "3a0cba72c4aa59f05769ec8a52dd571ed73d1f51", "fields": {"ville": "LILLE", "geometry": {"coordinates": [3.0914096599194, 50.649908118307], "type": "Point"}, "geo_point_2d": [50.649908118307, 3.0914096599194], "objectid": "60", "libelle": "Bibliotheque pour tous Notre Dame Pellevoisin", "code_postal": "59800", "horairesosm": "Tu 16:00-18:00; We 09:00-12:00,16:00-18:00; Sa 10:00-12:00,16:00-18:00", "adresse": "2 Parvis ND de Pellevoisin"}, "geometry": {"type": "Point", "coordinates": [3.0914096599194, 50.649908118307]}, "record_timestamp": "2022-06-02T04:00:01.376+02:00"},{"datasetid": "bibliotheques-mel", "recordid": "60f63a28d1b67623311e8c87d035dba9fc7c330d", "fields": {"ville": "MARQUETTE LEZ LILLE", "geometry": {"coordinates": [3.0638942962147, 50.676135570803], "type": "Point"}, "geo_point_2d": [50.676135570803, 3.0638942962147], "objectid": "68", "libelle": "Bibliotheque municipale et Ludotheque", "code_postal": "59520", "horairesosm": "Tu,Fr 16:30-18:30; We,Sa 10:00-18:00", "adresse": "12 rue des Martyrs de la Resistance"}, "geometry": {"type": "Point", "coordinates": [3.0638942962147, 50.676135570803]}, "record_timestamp": "2022-06-02T04:00:01.376+02:00"},{"datasetid": "bibliotheques-mel", "recordid": "c205a0e0d86b88a216603ebf1a750de1d39c95ea", "fields": {"ville": "MARQUILLIES", "geometry": {"coordinates": [2.8671893309498, 50.556649670455], "type": "Point"}, "geo_point_2d": [50.556649670455, 2.8671893309498], "objectid": "69", "libelle": "Bibliotheque", "code_postal": "59274", "horairesosm": "We 14:00-16:00; Sa,Su 10:00-12:00", "adresse": "100 rue de Verdun"}, "geometry": {"type": "Point", "coordinates": [2.8671893309498, 50.556649670455]}, "record_timestamp": "2022-06-02T04:00:01.376+02:00"},{"datasetid": "bibliotheques-mel", "recordid": "aae89a3e5e54fcd98db216f40e7e0dbf5f4c9441", "fields": {"ville": "PERENCHIES", "geometry": {"coordinates": [2.975399789435, 50.669234631507], "type": "Point"}, "geo_point_2d": [50.669234631507, 2.975399789435], "objectid": "76", "libelle": "Bibliotheque pour tous", "code_postal": "59840", "horairesosm": "Mo 16:00-18:00; We 14:00-16:30; Sa 10:00-12:00", "adresse": "10 place Roger Dutriez"}, "geometry": {"type": "Point", "coordinates": [2.975399789435, 50.669234631507]}, "record_timestamp": "2022-06-02T04:00:01.376+02:00"},{"datasetid": "bibliotheques-mel", "recordid": "91ddf4fa384e8b0554668143f5360357dfe4947f", "fields": {"ville": "BEAUCAMPS LIGNY", "geometry": {"coordinates": [2.9160415990399, 50.605041181433], "type": "Point"}, "geo_point_2d": [50.605041181433, 2.9160415990399], "objectid": "23154", "libelle": "Bibliotheque", "code_postal": "59134", "horairesosm": "Tu,Th 16:15-17:30; Sa 14:30-16:30", "adresse": "2 rue de Fournes"}, "geometry": {"type": "Point", "coordinates": [2.9160415990399, 50.605041181433]}, "record_timestamp": "2022-06-02T04:00:01.376+02:00"},{"datasetid": "bibliotheques-mel", "recordid": "7343311818b5b4d0f5ef7945cfdc6c3fc8908b0b", "fields": {"ville": "LESQUIN", "geometry": {"coordinates": [3.1230618117373, 50.594318162793], "type": "Point"}, "geo_point_2d": [50.594318162793, 3.1230618117373], "objectid": "23315", "libelle": "Bibliotheque", "horairesosm": "Tu,Fr 15:00-19:00; We 10:00-18:00; Sa 10:00-17:00", "adresse": "Centre culturel 1 rue Camille Claudel"}, "geometry": {"type": "Point", "coordinates": [3.1230618117373, 50.594318162793]}, "record_timestamp": "2022-06-02T04:00:01.376+02:00"},{"datasetid": "bibliotheques-mel", "recordid": "e8dc06a2472d827c94e2631091e993db5cafa569", "fields": {"ville": "LILLE", "geometry": {"coordinates": [3.0454565923523, 50.632298277877], "type": "Point"}, "geo_point_2d": [50.632298277877, 3.0454565923523], "objectid": "23321", "libelle": "Bibliotheque Universitaire Vauban", "horairesosm": "Mo-Fr 08:30-20:00; Sa 08:30-13:00", "adresse": "60 Rue du port"}, "geometry": {"type": "Point", "coordinates": [3.0454565923523, 50.632298277877]}, "record_timestamp": "2022-06-02T04:00:01.376+02:00"},{"datasetid": "bibliotheques-mel", "recordid": "3a6b9e01baa69e085c222c41d2dc6d517d7c4dc0", "fields": {"ville": "LILLE", "geometry": {"coordinates": [3.0402754123427, 50.605402295303], "type": "Point"}, "geo_point_2d": [50.605402295303, 3.0402754123427], "objectid": "22717", "libelle": "SCD Universite LILLE 2 - Bibliotheque de Pharmacie", "adresse": "3 rue Professeur Laguesse"}, "geometry": {"type": "Point", "coordinates": [3.0402754123427, 50.605402295303]}, "record_timestamp": "2022-06-02T04:00:01.376+02:00"},{"datasetid": "bibliotheques-mel", "recordid": "5de66024f1eb471c7421739d5b0a01b4af85de5a", "fields": {"ville": "LILLE", "geometry": {"coordinates": [3.0352835561787, 50.607174470749], "type": "Point"}, "geo_point_2d": [50.607174470749, 3.0352835561787], "objectid": "23323", "libelle": "SCD Universite LILLE 2 - Bibliotheque de Sante et Recherche", "horairesosm": "Mo-Fr 08:00-23:00; Sa 09:00-17:00", "adresse": "Site Calmette - Bat Boulanger  1 Boulevard du Professeur Leclercq"}, "geometry": {"type": "Point", "coordinates": [3.0352835561787, 50.607174470749]}, "record_timestamp": "2022-06-02T04:00:01.376+02:00"},{"datasetid": "bibliotheques-mel", "recordid": "a62600b0bfefc6d3814ea442c74ca6010f1c200b", "fields": {"ville": "MOUVAUX", "geometry": {"coordinates": [3.1371757740246, 50.701739228557], "type": "Point"}, "geo_point_2d": [50.701739228557, 3.1371757740246], "objectid": "22057", "libelle": "Bibliotheque-ludotheque pour tous", "code_postal": "59420", "horairesosm": "Tu,Th 16:00-18:00; We 10:00-12:00,16:00-18:00; Sa,Su 10:00-12:00", "adresse": "4 place coeur de ville"}, "geometry": {"type": "Point", "coordinates": [3.1371757740246, 50.701739228557]}, "record_timestamp": "2022-06-02T04:00:01.376+02:00"},{"datasetid": "bibliotheques-mel", "recordid": "3d3b3267abfeff8b857845e31f5dac1e644379ea", "fields": {"ville": "TEMPLEMARS", "geometry": {"coordinates": [3.0541352560677, 50.572434230241], "type": "Point"}, "geo_point_2d": [50.572434230241, 3.0541352560677], "objectid": "1643", "libelle": "Mediatheque Noel Dejonghe", "code_postal": "59175", "horairesosm": "Tu 15:00-17:30; We 10:00-19:00; Fr 15:00-19:00; Sa 10:00-12:00,14:00-16:00", "adresse": "4 rue Jules Guesde"}, "geometry": {"type": "Point", "coordinates": [3.0541352560677, 50.572434230241]}, "record_timestamp": "2022-06-02T04:00:01.376+02:00"},{"datasetid": "bibliotheques-mel", "recordid": "aa05a442273afab61823441ecf7780ccf8f31839", "fields": {"ville": "HELLEMMES", "geometry": {"coordinates": [3.1029200765805, 50.623522611975], "type": "Point"}, "geo_point_2d": [50.623522611975, 3.1029200765805], "objectid": "625", "libelle": "Mediatheque departementale du Nord : site Lille-Douai", "horairesosm": "Mo-Fr 08:30-12:30,13:30-17:30", "adresse": "140 Rue Ferdinand Mathias"}, "geometry": {"type": "Point", "coordinates": [3.1029200765805, 50.623522611975]}, "record_timestamp": "2022-06-02T04:00:01.376+02:00"},{"datasetid": "bibliotheques-mel", "recordid": "18a61b6f13574d439684ca65a2801a11c4d43a56", "fields": {"ville": "VILLENEUVE D'ASCQ", "geometry": {"coordinates": [3.1444265277603, 50.665252644242], "type": "Point"}, "geo_point_2d": [50.665252644242, 3.1444265277603], "objectid": "104", "libelle": "Bibliotheque de l'amicale laique Pasteur-Jean Jaures", "code_postal": "59650", "adresse": "59 Rue Jean-Baptiste Bonte (Flers Breucq)"}, "geometry": {"type": "Point", "coordinates": [3.1444265277603, 50.665252644242]}, "record_timestamp": "2022-06-02T04:00:01.376+02:00"},{"datasetid": "bibliotheques-mel", "recordid": "1f342f1632347482885a2ac711284d1f221a1bf4", "fields": {"ville": "VILLENEUVE D'ASCQ", "geometry": {"coordinates": [3.162545180527, 50.61820656922], "type": "Point"}, "geo_point_2d": [50.61820656922, 3.162545180527], "objectid": "110", "libelle": "Bibliotheque laique d'Ascq", "code_postal": "59650", "horairesosm": "Mo,Sa 15:00-17:00; We 15:00-18:00", "adresse": "2 Rue Jean Delattre (Ascq)"}, "geometry": {"type": "Point", "coordinates": [3.162545180527, 50.61820656922]}, "record_timestamp": "2022-06-02T04:00:01.376+02:00"},{"datasetid": "bibliotheques-mel", "recordid": "e174774adeb2599598ee6e9b876da81cddbdbf29", "fields": {"ville": "WASQUEHAL", "geometry": {"coordinates": [3.1273032291305, 50.671863360042], "type": "Point"}, "geo_point_2d": [50.671863360042, 3.1273032291305], "objectid": "113", "libelle": "Mediatheque", "code_postal": "59290", "horairesosm": "Tu 14:00-18:30; We 08:30-12:00,14:00-18:30; Fr 09:00-12:00,14:00-18:30;Sa 09:00-12:00,14:00-16:00", "adresse": "4 rue Pasteur"}, "geometry": {"type": "Point", "coordinates": [3.1273032291305, 50.671863360042]}, "record_timestamp": "2022-06-02T04:00:01.376+02:00"},{"datasetid": "bibliotheques-mel", "recordid": "030195e09c10775d872b2d828ce131a1a9b1e66e", "fields": {"ville": "WATTIGNIES", "geometry": {"coordinates": [3.0450440156869, 50.581561995047], "type": "Point"}, "geo_point_2d": [50.581561995047, 3.0450440156869], "objectid": "114", "libelle": "Bibliotheque pour tous", "code_postal": "59139", "horairesosm": "Mo 16:00-18:30; We 15:30-18:30; Sa 10:00-12:00,16:00-18:00; Su 10:00-12:00", "adresse": "68 place de la Republique BP 49"}, "geometry": {"type": "Point", "coordinates": [3.0450440156869, 50.581561995047]}, "record_timestamp": "2022-06-02T04:00:01.376+02:00"},{"datasetid": "bibliotheques-mel", "recordid": "5b8f111584fe1ddd080ed530a971e5b02e553806", "fields": {"ville": "RONCQ", "geometry": {"coordinates": [3.1208794408484, 50.755209354329], "type": "Point"}, "geo_point_2d": [50.755209354329, 3.1208794408484], "objectid": "82", "libelle": "Bibliotheque", "code_postal": "59223", "horairesosm": "Mo 15:00-18:00; Tu 15:00-20:00; We 09:00-18:00; Fr 10:00-13:00,15:00-18:00; Sa 09:30-12:30,14:00-16:00", "adresse": "364 rue de Lille"}, "geometry": {"type": "Point", "coordinates": [3.1208794408484, 50.755209354329]}, "record_timestamp": "2022-06-02T04:00:01.376+02:00"},{"datasetid": "bibliotheques-mel", "recordid": "6fa0a790a409f92dcc1243e7bea4d21afc76eda6", "fields": {"ville": "SAILLY LEZ LANNOY", "geometry": {"coordinates": [3.2225434118234, 50.648551931224], "type": "Point"}, "geo_point_2d": [50.648551931224, 3.2225434118234], "objectid": "85", "libelle": "Bibliotheque associative", "code_postal": "59390", "horairesosm": "We 10:30-12:00,18:00-19:00; Sa,Su 10:30-12:00", "adresse": "12 rue de la Mairie"}, "geometry": {"type": "Point", "coordinates": [3.2225434118234, 50.648551931224]}, "record_timestamp": "2022-06-02T04:00:01.376+02:00"},{"datasetid": "bibliotheques-mel", "recordid": "3436957739ba4167159c7926749b344124d3103f", "fields": {"ville": "SALOME", "geometry": {"coordinates": [2.8398920566248, 50.532680157507], "type": "Point"}, "geo_point_2d": [50.532680157507, 2.8398920566248], "objectid": "89", "libelle": "Bibliotheque Salomeenne", "code_postal": "59496", "horairesosm": "We 14:00-17:30; Fr 13:30-19:00; Sa,Su 10:00-13:00", "adresse": "Place Louise Bocquet"}, "geometry": {"type": "Point", "coordinates": [2.8398920566248, 50.532680157507]}, "record_timestamp": "2022-06-02T04:00:01.376+02:00"},{"datasetid": "bibliotheques-mel", "recordid": "806968f738c38385572fdd80dc08e11177be8a6d", "fields": {"ville": "ANSTAING", "geometry": {"coordinates": [3.189285066931, 50.603922661702], "type": "Point"}, "geo_point_2d": [50.603922661702, 3.189285066931], "objectid": "1", "libelle": "Bibliotheque", "code_postal": "59152", "horairesosm": "We 14:30-16:30;Sa 10:00-12:00", "adresse": "2 Rue Camille Dufay"}, "geometry": {"type": "Point", "coordinates": [3.189285066931, 50.603922661702]}, "record_timestamp": "2022-06-02T04:00:01.376+02:00"},{"datasetid": "bibliotheques-mel", "recordid": "9776994bf1a4557fba8991cada98c682ae3912f2", "fields": {"ville": "BOUSBECQUE", "geometry": {"coordinates": [3.0675930434931, 50.772099160227], "type": "Point"}, "geo_point_2d": [50.772099160227, 3.0675930434931], "objectid": "6", "libelle": "Bibliotheque pour tous", "code_postal": "59166", "horairesosm": "We 10:30-12:00,16:30-18:00; Sa,Su 10:30-12:00", "adresse": "42 rue de Wervicq"}, "geometry": {"type": "Point", "coordinates": [3.0675930434931, 50.772099160227]}, "record_timestamp": "2022-06-02T04:00:01.376+02:00"},{"datasetid": "bibliotheques-mel", "recordid": "413571cf7d8fc2d60bca872b0de5aac029129bfc", "fields": {"ville": "DEULEMONT", "geometry": {"coordinates": [2.944879893256, 50.734807968817], "type": "Point"}, "geo_point_2d": [50.734807968817, 2.944879893256], "objectid": "13", "libelle": "Bibliotheque", "code_postal": "59890", "horairesosm": "Mo 8:30-9:30; Tu 18:30-19:15", "adresse": "5 Place Louis Claro"}, "geometry": {"type": "Point", "coordinates": [2.944879893256, 50.734807968817]}, "record_timestamp": "2022-06-02T04:00:01.376+02:00"},{"datasetid": "bibliotheques-mel", "recordid": "2950554494c6a07f0c33cda13e796a8113f0c14a", "fields": {"ville": "ENNETIERES-EN-WEPPES", "geometry": {"coordinates": [2.9387860494991, 50.635055063583], "type": "Point"}, "geo_point_2d": [50.635055063583, 2.9387860494991], "objectid": "17", "libelle": "Mediatheque", "code_postal": "59320", "horairesosm": "Tu 17:00-19:00; We 10:30-12:00,14:30-18:30; Fr 16:30-19:00; Sa 10:30-12:00", "adresse": "34 rue Du Bourg"}, "geometry": {"type": "Point", "coordinates": [2.9387860494991, 50.635055063583]}, "record_timestamp": "2022-06-02T04:00:01.376+02:00"},{"datasetid": "bibliotheques-mel", "recordid": "2aa57d0ec8e7b9458b8a24bfa9d67a106749f6dd", "fields": {"ville": "FOURNES EN WEPPES", "geometry": {"coordinates": [2.8875586294565, 50.583951334416], "type": "Point"}, "geo_point_2d": [50.583951334416, 2.8875586294565], "objectid": "22", "libelle": "Bibliotheque", "code_postal": "59134", "horairesosm": "We 18:00-19:00; Sa 14:30-16:30", "adresse": "Place de l'Eglise"}, "geometry": {"type": "Point", "coordinates": [2.8875586294565, 50.583951334416]}, "record_timestamp": "2022-06-02T04:00:01.376+02:00"},{"datasetid": "bibliotheques-mel", "recordid": "4b556466c576a2750bd212c55e82ad8362b995ba", "fields": {"ville": "LA CHAPELLE D'ARMENTIERES", "geometry": {"coordinates": [2.9243480498634, 50.661996441559], "type": "Point"}, "geo_point_2d": [50.661996441559, 2.9243480498634], "objectid": "38", "libelle": "Bibliotheque pour tous", "code_postal": "59930", "horairesosm": "Tu 10:00-11:00,16:30-18:00; We,Fr 16:30-18:00", "adresse": "232 route Nationale"}, "geometry": {"type": "Point", "coordinates": [2.9243480498634, 50.661996441559]}, "record_timestamp": "2022-06-02T04:00:01.376+02:00"},{"datasetid": "bibliotheques-mel", "recordid": "314ad041287c2ebb5a580dc8c5e609098b10f4d1", "fields": {"ville": "LAMBERSART", "geometry": {"coordinates": [3.0248475736013, 50.641175322736], "type": "Point"}, "geo_point_2d": [50.641175322736, 3.0248475736013], "objectid": "42", "libelle": "Bibliotheque Jeanne d'Arc", "code_postal": "59130", "horairesosm": "We 10:00-12:00,14:00-16:00; Th 18:00-19:00; Sa 10:00-12:00", "adresse": "12 rue champetre"}, "geometry": {"type": "Point", "coordinates": [3.0248475736013, 50.641175322736]}, "record_timestamp": "2022-06-02T04:00:01.376+02:00"},{"datasetid": "bibliotheques-mel", "recordid": "ff404d04ff6190d14c99346cefef3e6d2f229178", "fields": {"ville": "LAMBERSART", "geometry": {"coordinates": [3.0296156117318, 50.655258774888], "type": "Point"}, "geo_point_2d": [50.655258774888, 3.0296156117318], "objectid": "43", "libelle": "Bibliotheque pour tous du Bourg", "code_postal": "59130", "horairesosm": "Mo,Fr 16:00-18:30; Tu 16:00-19:00; We 10:00-12:00,15:00-18:30; Sa 10:00-12:00,15:00-17:30", "adresse": "1 avenue de la Liberte"}, "geometry": {"type": "Point", "coordinates": [3.0296156117318, 50.655258774888]}, "record_timestamp": "2022-06-02T04:00:01.376+02:00"},{"datasetid": "bibliotheques-mel", "recordid": "26fc3585cdd0c11207ac47e0c0b902a8f875d8f3", "fields": {"ville": "LEERS", "geometry": {"coordinates": [3.2439445005775, 50.679104646182], "type": "Point"}, "geo_point_2d": [50.679104646182, 3.2439445005775], "objectid": "47", "libelle": "Bibliotheque", "code_postal": "59115", "horairesosm": "Mo 14:30-16:30; We 9:30-11:30; Th 16:00-18:00; Su 10:00-12:00", "adresse": "35 rue Joseph Leroy"}, "geometry": {"type": "Point", "coordinates": [3.2439445005775, 50.679104646182]}, "record_timestamp": "2022-06-02T04:00:01.376+02:00"},{"datasetid": "bibliotheques-mel", "recordid": "c0b2fbded6eb82d5f31193961d99360b78184747", "fields": {"ville": "LESQUIN", "geometry": {"coordinates": [3.1105512330648, 50.589012295229], "type": "Point"}, "geo_point_2d": [50.589012295229, 3.1105512330648], "objectid": "48", "libelle": "Bibliotheque pour tous", "code_postal": "59810", "horairesosm": "Tu,Fr 15:00-19:00; We 10:00-18:00; Sa 10:00-17:00", "adresse": "Rue Sadi Carnot"}, "geometry": {"type": "Point", "coordinates": [3.1105512330648, 50.589012295229]}, "record_timestamp": "2022-06-02T04:00:01.376+02:00"},{"datasetid": "bibliotheques-mel", "recordid": "322744bc0fe16daf5b3f5ae321118dca9e80a9e7", "fields": {"ville": "LEZENNES", "geometry": {"coordinates": [3.1158488110197, 50.614468543833], "type": "Point"}, "geo_point_2d": [50.614468543833, 3.1158488110197], "objectid": "49", "libelle": "Mediatheque", "code_postal": "59260", "horairesosm": "Tu 11:00-14:00; We 10:00-12:00,15:00-19:00; Fr 15:00-18:00; Sa 10:00-12:00,14:00-18:00", "adresse": "20 Place de la Republique"}, "geometry": {"type": "Point", "coordinates": [3.1158488110197, 50.614468543833]}, "record_timestamp": "2022-06-02T04:00:01.376+02:00"},{"datasetid": "bibliotheques-mel", "recordid": "c85ecc096748367f833d9ab4df16a44ae89205af", "fields": {"ville": "LILLE", "geometry": {"coordinates": [3.0641012159161, 50.641019819004], "type": "Point"}, "geo_point_2d": [50.641019819004, 3.0641012159161], "objectid": "57", "libelle": "Mediatheque du Vieux Lille", "code_postal": "59800", "horairesosm": "Tu,Th,Fr 14:00-18:00; We,Sa 10:00-13:00,14:00-18:00", "adresse": "25 / 27 Place Louise de Bettignies"}, "geometry": {"type": "Point", "coordinates": [3.0641012159161, 50.641019819004]}, "record_timestamp": "2022-06-02T04:00:01.376+02:00"},{"datasetid": "bibliotheques-mel", "recordid": "21dc8f01a0676f75cc3d883bcd207ff2e4610cca", "fields": {"ville": "LINSELLES", "geometry": {"coordinates": [3.0844555135757, 50.738874742956], "type": "Point"}, "geo_point_2d": [50.738874742956, 3.0844555135757], "objectid": "61", "libelle": "Bibliotheque pour Tous", "code_postal": "59126", "horairesosm": "Tu 10:30-11:30; We 14:00-16:00; Th 17:30-18:30; Sa 14:00-15:00; Su 10:30-12:00", "adresse": "22 Route de Hautevalle"}, "geometry": {"type": "Point", "coordinates": [3.0844555135757, 50.738874742956]}, "record_timestamp": "2022-06-02T04:00:01.376+02:00"},{"datasetid": "bibliotheques-mel", "recordid": "c055cde6d4c2b0d1bbba266e594b4e7af87ba07a", "fields": {"ville": "LOMME", "geometry": {"coordinates": [2.9963263551468, 50.646502777697], "type": "Point"}, "geo_point_2d": [50.646502777697, 2.9963263551468], "objectid": "62", "libelle": "Mediatheque L'Odyssee", "code_postal": "59461", "horairesosm": "Tu,Th,Fr 14:00-18:00; We 10:00-18:00;Su 10:00-13:00", "adresse": "794 Avenue de Dunkerque BP 159"}, "geometry": {"type": "Point", "coordinates": [2.9963263551468, 50.646502777697]}, "record_timestamp": "2022-06-02T04:00:01.376+02:00"},{"datasetid": "bibliotheques-mel", "recordid": "8ad0dfabc5c778dd0c12ee2c21c1bae34d6945ec", "fields": {"ville": "LE MAISNIL", "geometry": {"coordinates": [2.8844338999996, 50.615712300029], "type": "Point"}, "geo_point_2d": [50.615712300029, 2.8844338999996], "objectid": "125", "libelle": "Mediatheque de Le Maisnil     \"Les Merlettes\"", "code_postal": "59134", "horairesosm": "Tu 16:30-18:30; We 14:00-19:00; Sa 10:00-12:30; PH off", "adresse": "9 rue de l'Eglise (Foyer Rural)"}, "geometry": {"type": "Point", "coordinates": [2.8844338999996, 50.615712300029]}, "record_timestamp": "2022-06-02T04:00:01.376+02:00"},{"datasetid": "bibliotheques-mel", "recordid": "620baeb0853878172188c28e149b539529ccc059", "fields": {"ville": "LA BASSEE", "geometry": {"coordinates": [2.806557070134, 50.532462654528], "type": "Point"}, "geo_point_2d": [50.532462654528, 2.806557070134], "objectid": "6381", "libelle": "Bibliotheque", "code_postal": "59480", "horairesosm": "Tu,Fr 16:00-18:00; We,Sa 16:30-18:30;Th 10:00-12:00", "adresse": "1 rue Carnot"}, "geometry": {"type": "Point", "coordinates": [2.806557070134, 50.532462654528]}, "record_timestamp": "2022-06-02T04:00:01.376+02:00"},{"datasetid": "bibliotheques-mel", "recordid": "28129a5c1d09b40f9f073515c535d60914977633", "fields": {"ville": "ESCOBECQUES", "geometry": {"coordinates": [2.9299039574031, 50.622164445305], "type": "Point"}, "geo_point_2d": [50.622164445305, 2.9299039574031], "objectid": "23311", "libelle": "Mediatheque", "code_postal": "59320", "horairesosm": "We 17:30-18:30; Sa 10:30-12:00", "adresse": "6 rue de la Forterie"}, "geometry": {"type": "Point", "coordinates": [2.9299039574031, 50.622164445305]}, "record_timestamp": "2022-06-02T04:00:01.376+02:00"},{"datasetid": "bibliotheques-mel", "recordid": "fed32c96319cd1c9a748e493352b82a236d4e34e", "fields": {"ville": "LILLE", "geometry": {"coordinates": [3.0708556884293, 50.63090079325], "type": "Point"}, "geo_point_2d": [50.63090079325, 3.0708556884293], "objectid": "23326", "libelle": "Archives municipales", "adresse": "Hotel de Ville 2eme pavillon,RDC bas, porte RCB 31. Place Augustin Laurent"}, "geometry": {"type": "Point", "coordinates": [3.0708556884293, 50.63090079325]}, "record_timestamp": "2022-06-02T04:00:01.376+02:00"},{"datasetid": "bibliotheques-mel", "recordid": "9939b1002b27d9f4a895464c61fdaa203aa81a27", "fields": {"ville": "LOOS", "geometry": {"coordinates": [3.0328425839671, 50.600849449815], "type": "Point"}, "geo_point_2d": [50.600849449815, 3.0328425839671], "objectid": "23327", "libelle": "Centre de documentation de l'IRTS", "horairesosm": "Mo-Fr 07:00-18:00", "adresse": "Rue Ambroise Pare"}, "geometry": {"type": "Point", "coordinates": [3.0328425839671, 50.600849449815]}, "record_timestamp": "2022-06-02T04:00:01.376+02:00"},{"datasetid": "bibliotheques-mel", "recordid": "8a76af812c913cc8e12efee039d57eac958d26f9", "fields": {"ville": "MONS-EN-BAROEUL", "geometry": {"coordinates": [3.1057846560369, 50.642037574278], "type": "Point"}, "geo_point_2d": [50.642037574278, 3.1057846560369], "objectid": "23316", "libelle": "Bibliotheque sonore de Lille", "horairesosm": "Mo-Th 14:00-16:00", "adresse": "34 Avenue Robert Schuman"}, "geometry": {"type": "Point", "coordinates": [3.1057846560369, 50.642037574278]}, "record_timestamp": "2022-06-02T04:00:01.376+02:00"},{"datasetid": "bibliotheques-mel", "recordid": "85872747041fc27811ffd216a1b5eca2a56b41ac", "fields": {"ville": "VERLINGHEM", "geometry": {"coordinates": [2.9953057598092, 50.681027391187], "type": "Point"}, "geo_point_2d": [50.681027391187, 2.9953057598092], "objectid": "19680", "libelle": "Ludotheque Bibliotheque", "code_postal": "59237", "horairesosm": "We 17:45-18:45;Sa 11:00-12:30;Su 11:00-12:00", "adresse": "place du general de Gaulle"}, "geometry": {"type": "Point", "coordinates": [2.9953057598092, 50.681027391187]}, "record_timestamp": "2022-06-02T04:00:01.376+02:00"},{"datasetid": "bibliotheques-mel", "recordid": "9d2d216589feaff294e24e4c841fc2739db6a3ae", "fields": {"ville": "VILLENEUVE D'ASCQ", "geometry": {"coordinates": [3.1289625144495, 50.639153798194], "type": "Point"}, "geo_point_2d": [50.639153798194, 3.1289625144495], "objectid": "105", "libelle": "Bibliotheque de Flers-Bourg", "code_postal": "59650", "horairesosm": "We 14:30-16:30; Th 16:30-18:00; Fr 15:30-17:00; Sa 16:30-18:00; Su 10:30-11:30;", "adresse": "218 rue Jules Guesde"}, "geometry": {"type": "Point", "coordinates": [3.1289625144495, 50.639153798194]}, "record_timestamp": "2022-06-02T04:00:01.376+02:00"},{"datasetid": "bibliotheques-mel", "recordid": "40c347876c37b00abf372863c9373b0ad6900226", "fields": {"ville": "VILLENEUVE D'ASCQ", "geometry": {"coordinates": [3.1400470376175, 50.657349037269], "type": "Point"}, "geo_point_2d": [50.657349037269, 3.1400470376175], "objectid": "106", "libelle": "Bibliotheque Centre social Flers-Sart", "code_postal": "59650", "horairesosm": "Tu 16:30-18:00; Th 17:00-18:30; Fr 16:30-18:00", "adresse": "Boulevard Albert 1er (Sart)"}, "geometry": {"type": "Point", "coordinates": [3.1400470376175, 50.657349037269]}, "record_timestamp": "2022-06-02T04:00:01.376+02:00"},{"datasetid": "bibliotheques-mel", "recordid": "518881d2c33a5470caaa531ef94828d2d744938b", "fields": {"ville": "WATTRELOS", "geometry": {"coordinates": [3.2356861527662, 50.704713527192], "type": "Point"}, "geo_point_2d": [50.704713527192, 3.2356861527662], "objectid": "117", "libelle": "Bibliotheque Annexe de Beaulieu", "code_postal": "59150", "horairesosm": "We 09:30-12:00,14:00-18:00; Tu,Th,Fr 14:00-18:00; Sa 13:00-17:00", "adresse": "4 rue Edouard-Herriot"}, "geometry": {"type": "Point", "coordinates": [3.2356861527662, 50.704713527192]}, "record_timestamp": "2022-06-02T04:00:01.376+02:00"},{"datasetid": "bibliotheques-mel", "recordid": "20a65690b7ad2d9e4f392fcbed8eb8aa078c5e05", "fields": {"ville": "WATTRELOS", "geometry": {"coordinates": [3.1792031940792, 50.713572752429], "type": "Point"}, "geo_point_2d": [50.713572752429, 3.1792031940792], "objectid": "118", "libelle": "Bibliotheque Annexe du Sapin Vert", "code_postal": "59150", "horairesosm": "We 09:30-12:00,14:00-18:00; Tu,Th,Fr 14:00-18:00; Sa 13:00-17:00", "adresse": "47 Rue de L'Union"}, "geometry": {"type": "Point", "coordinates": [3.1792031940792, 50.713572752429]}, "record_timestamp": "2022-06-02T04:00:01.376+02:00"},{"datasetid": "bibliotheques-mel", "recordid": "480d87df11f389a0412d54770319c1a7f29a0efb", "fields": {"ville": "WILLEMS", "geometry": {"coordinates": [3.2391258335402, 50.632507396923], "type": "Point"}, "geo_point_2d": [50.632507396923, 3.2391258335402], "objectid": "122", "libelle": "Mediatheque", "code_postal": "59780", "horairesosm": "We,Fr 16:30-18:00;Su 10:00-12:00", "adresse": "28 rue des Ecoles"}, "geometry": {"type": "Point", "coordinates": [3.2391258335402, 50.632507396923]}, "record_timestamp": "2022-06-02T04:00:01.376+02:00"},{"datasetid": "bibliotheques-mel", "recordid": "7f8029f2565ad9d47d7e360e63731a75ddcfdf72", "fields": {"ville": "SECLIN", "geometry": {"coordinates": [3.0315306595773, 50.550333126983], "type": "Point"}, "geo_point_2d": [50.550333126983, 3.0315306595773], "objectid": "91", "libelle": "Bibliotheque Jacques-Estager", "code_postal": "59113", "horairesosm": "Tu,Th,Fr 15:00-19:00; We 10:00-12:00,14:00-19:00; Sa 10:00-17:00", "adresse": "1 contour de l'Eglise"}, "geometry": {"type": "Point", "coordinates": [3.0315306595773, 50.550333126983]}, "record_timestamp": "2022-06-02T04:00:01.376+02:00"},{"datasetid": "bibliotheques-mel", "recordid": "b274eced3037859ed4967b74c97452176d5dbf42", "fields": {"ville": "TOUFFLERS", "geometry": {"coordinates": [3.2296348371144, 50.660229360976], "type": "Point"}, "geo_point_2d": [50.660229360976, 3.2296348371144], "objectid": "94", "libelle": "Bibliotheque", "code_postal": "59390", "horairesosm": "We,Sa,Su 10:00-12:00; Tu 17:00-18:00; Fr 16:30-17:30", "adresse": "7 rue des Champs"}, "geometry": {"type": "Point", "coordinates": [3.2296348371144, 50.660229360976]}, "record_timestamp": "2022-06-02T04:00:01.376+02:00"},{"datasetid": "bibliotheques-mel", "recordid": "4e91f1ac7ac2eeba227f44727370f105114b4bcb", "fields": {"ville": "TOURCOING", "geometry": {"coordinates": [3.1516396777423, 50.695399516373], "type": "Point"}, "geo_point_2d": [50.695399516373, 3.1516396777423], "objectid": "96", "libelle": "Mediatheque Aime Cesaire", "code_postal": "59200", "horairesosm": "Tu,Fr 16:00-18:30; We 10:00-12:30,13:30-18:30; Sa 10:00-12:30,13:30-17:30", "adresse": "285 boulevard Descat"}, "geometry": {"type": "Point", "coordinates": [3.1516396777423, 50.695399516373]}, "record_timestamp": "2022-06-02T04:00:01.376+02:00"},{"datasetid": "bibliotheques-mel", "recordid": "4035c6db20661adf24fdc9d2188b5f86fc606f14", "fields": {"ville": "FROMELLES", "geometry": {"coordinates": [2.853350168875, 50.60638309576], "type": "Point"}, "geo_point_2d": [50.60638309576, 2.853350168875], "objectid": "200", "libelle": "Mediatheque", "code_postal": "59249", "horairesosm": "We 16:00-19:00;Sa-Su 10:30-12:00", "adresse": "rue de l'Eglise"}, "geometry": {"type": "Point", "coordinates": [2.853350168875, 50.60638309576]}, "record_timestamp": "2022-06-02T04:00:01.376+02:00"},{"datasetid": "bibliotheques-mel", "recordid": "90b3f1bf15c8daf100cf8d50c9d778eb6ee1e466", "fields": {"ville": "BAISIEUX", "geometry": {"coordinates": [3.2394115736292, 50.614285427613], "type": "Point"}, "geo_point_2d": [50.614285427613, 3.2394115736292], "objectid": "3", "libelle": "Bibliotheque", "code_postal": "59780", "adresse": "700 rue de la mairie"}, "geometry": {"type": "Point", "coordinates": [3.2394115736292, 50.614285427613]}, "record_timestamp": "2022-06-02T04:00:01.376+02:00"},{"datasetid": "bibliotheques-mel", "recordid": "3f4fba4fd11e3f7bf6288ab77a5b42187ddcbf8b", "fields": {"ville": "BONDUES", "geometry": {"coordinates": [3.0927988423732, 50.703375265361], "type": "Point"}, "geo_point_2d": [50.703375265361, 3.0927988423732], "objectid": "5", "libelle": "Bibliotheque ludotheque", "code_postal": "59910", "horairesosm": "Tu,Fr 16:30-18:30; We 10:00-12:00,15:30-18:30; Sa,Su 10:00-12:30", "adresse": "3 bis rue du Bosquiel"}, "geometry": {"type": "Point", "coordinates": [3.0927988423732, 50.703375265361]}, "record_timestamp": "2022-06-02T04:00:01.376+02:00"},{"datasetid": "bibliotheques-mel", "recordid": "842a91a848ada0e3e9b329b22ad1446fe7977f2c", "fields": {"ville": "CAPINGHEM", "geometry": {"coordinates": [2.966662464763, 50.64489842003], "type": "Point"}, "geo_point_2d": [50.64489842003, 2.966662464763], "objectid": "7", "libelle": "Bibliotheque municipale", "code_postal": "59160", "horairesosm": "Mo 17:00-19:00; We 15:00-17:00; Sa 11:00-12:00", "adresse": "58 bis Rue Poincare"}, "geometry": {"type": "Point", "coordinates": [2.966662464763, 50.64489842003]}, "record_timestamp": "2022-06-02T04:00:01.376+02:00"},{"datasetid": "bibliotheques-mel", "recordid": "b6a99ff1d0cd6517bde6659bc3eb8fbf3f7beff9", "fields": {"ville": "DON", "geometry": {"coordinates": [2.9190804445854, 50.548581848444], "type": "Point"}, "geo_point_2d": [50.548581848444, 2.9190804445854], "objectid": "14", "libelle": "Bibliotheque associative de Don", "code_postal": "59272", "horairesosm": "Sa[2,4]", "adresse": "4 rue Anatole France"}, "geometry": {"type": "Point", "coordinates": [2.9190804445854, 50.548581848444]}, "record_timestamp": "2022-06-02T04:00:01.376+02:00"},{"datasetid": "bibliotheques-mel", "recordid": "0805aa7a9699a8b80683f416645db6354fa42864", "fields": {"ville": "EMMERIN", "geometry": {"coordinates": [2.9964085486743, 50.59357206984], "type": "Point"}, "geo_point_2d": [50.59357206984, 2.9964085486743], "objectid": "15", "libelle": "Bibliotheque municipale", "code_postal": "59320", "horairesosm": "Mo,Tu,Th 17:30-18:30; We 10:30-11:30,16:00-18:00; Sa 10:30-11:30", "adresse": "5 Rue Maire Castel"}, "geometry": {"type": "Point", "coordinates": [2.9964085486743, 50.59357206984]}, "record_timestamp": "2022-06-02T04:00:01.376+02:00"},{"datasetid": "bibliotheques-mel", "recordid": "2e39e0b0ef0fdbca67ecfa07c33bac297d011a79", "fields": {"ville": "ERQUINGHEM LYS", "geometry": {"coordinates": [2.8455114929366, 50.676579055116], "type": "Point"}, "geo_point_2d": [50.676579055116, 2.8455114929366], "objectid": "18", "libelle": "Bibliotheque pour tous", "code_postal": "59193", "horairesosm": "Mo,Fr 16:30-18:00; We 15:00-18:00; Sa 10:00-12:00", "adresse": "120 rue Delpierre"}, "geometry": {"type": "Point", "coordinates": [2.8455114929366, 50.676579055116]}, "record_timestamp": "2022-06-02T04:00:01.376+02:00"},{"datasetid": "bibliotheques-mel", "recordid": "f33828155531851a04a2644a5c13653539bfb653", "fields": {"ville": "FOREST-SUR-MARQUE", "geometry": {"coordinates": [3.1901409495213, 50.633668236394], "type": "Point"}, "geo_point_2d": [50.633668236394, 3.1901409495213], "objectid": "21", "libelle": "Mediatheque", "code_postal": "59510", "horairesosm": "Mo 14:00-16:00; Tu,Sa 10:00-12:00; We,Fr 17:00-19:00; Th 14:00-19:00", "adresse": "105 Rue Principale"}, "geometry": {"type": "Point", "coordinates": [3.1901409495213, 50.633668236394]}, "record_timestamp": "2022-06-02T04:00:01.376+02:00"},{"datasetid": "bibliotheques-mel", "recordid": "f3dc032e8be140100693f2ee46c92bdf4f90a61d", "fields": {"ville": "HELLEMMES LILLE", "geometry": {"coordinates": [3.1095120423325, 50.627666388298], "type": "Point"}, "geo_point_2d": [50.627666388298, 3.1095120423325], "objectid": "30", "libelle": "Bibliotheque", "code_postal": "59260", "horairesosm": "Tu,Th,Fr 14:00-18:00; We,Sa 10:00-12:00,14:00-18:00", "adresse": "2 place Joseph Hentges BP 18"}, "geometry": {"type": "Point", "coordinates": [3.1095120423325, 50.627666388298]}, "record_timestamp": "2022-06-02T04:00:01.376+02:00"},{"datasetid": "bibliotheques-mel", "recordid": "f3f6c3a03c6fc8cff74c8beee72dbd969a72010d", "fields": {"ville": "HERLIES", "geometry": {"coordinates": [2.8646005196696, 50.580647981619], "type": "Point"}, "geo_point_2d": [50.580647981619, 2.8646005196696], "objectid": "33", "libelle": "Bibliotheque", "code_postal": "59134", "horairesosm": "We 15:30-17:30; Sa 11:00-12:00; Su 10:30-12:00", "adresse": "Rue du Pilly"}, "geometry": {"type": "Point", "coordinates": [2.8646005196696, 50.580647981619]}, "record_timestamp": "2022-06-02T04:00:01.376+02:00"},{"datasetid": "bibliotheques-mel", "recordid": "ff6c4b91bfefa74ceae30e000c736de066c89abe", "fields": {"ville": "LILLE", "geometry": {"coordinates": [3.0662190621142, 50.632436898257], "type": "Point"}, "geo_point_2d": [50.632436898257, 3.0662190621142], "objectid": "50", "libelle": "Mediatheque municipale Jean Levy", "code_postal": "59043", "horairesosm": "Tu-Fr 10:00-19:00;Sa 10:00-18:00;SH Tu-Sa 14:00-18:00; PH off", "adresse": "32-34 rue Edouard Delesalle"}, "geometry": {"type": "Point", "coordinates": [3.0662190621142, 50.632436898257]}, "record_timestamp": "2022-06-02T04:00:01.376+02:00"},{"datasetid": "bibliotheques-mel", "recordid": "f9630b83372460ef06ae9deb49832691d6f9df95", "fields": {"ville": "LILLE", "geometry": {"coordinates": [3.035552996328, 50.635692758547], "type": "Point"}, "geo_point_2d": [50.635692758547, 3.035552996328], "objectid": "53", "libelle": "Mediatheque des Bois Blancs", "code_postal": "59000", "horairesosm": "Tu,Th,Fr 14:00-18:00; We,Sa 10:00-13:00,14:00-18:00", "adresse": "36 Avenue Marx Dormoy"}, "geometry": {"type": "Point", "coordinates": [3.035552996328, 50.635692758547]}, "record_timestamp": "2022-06-02T04:00:01.376+02:00"},{"datasetid": "bibliotheques-mel", "recordid": "37a7390bb963b6fc944d36c7718ae81407df8e95", "fields": {"ville": "LILLE", "geometry": {"coordinates": [3.0419344550915, 50.625783456953], "type": "Point"}, "geo_point_2d": [50.625783456953, 3.0419344550915], "objectid": "59", "libelle": "Bibliotheque Cormontaigne", "code_postal": "59000", "horairesosm": "Mo,Tu,Fr,Sa 15:00-18:00; We 10:00-12:00,15:00-18:00", "adresse": "177 bis rue des Stations"}, "geometry": {"type": "Point", "coordinates": [3.0419344550915, 50.625783456953]}, "record_timestamp": "2022-06-02T04:00:01.376+02:00"},{"datasetid": "bibliotheques-mel", "recordid": "8410c21e924636ec28a23423c31adba940363c4c", "fields": {"ville": "LOMPRET", "geometry": {"coordinates": [2.9895304887712, 50.670780857303], "type": "Point"}, "geo_point_2d": [50.670780857303, 2.9895304887712], "objectid": "63", "libelle": "Bibliotheque pour Tous", "code_postal": "59840", "horairesosm": "We 10:30-12:00,14:00-16:00; Th 16:30-18:00;Su 10:00-12:00", "adresse": "Place de l'Eglise"}, "geometry": {"type": "Point", "coordinates": [2.9895304887712, 50.670780857303]}, "record_timestamp": "2022-06-02T04:00:01.376+02:00"},{"datasetid": "bibliotheques-mel", "recordid": "5fd4a016507b5e191056f02507e3470075ecade9", "fields": {"ville": "LOOS LEZ LILLE", "geometry": {"coordinates": [3.0119908659525, 50.609108644018], "type": "Point"}, "geo_point_2d": [50.609108644018, 3.0119908659525], "objectid": "65", "libelle": "Bibliotheque Prevert", "code_postal": "59120", "horairesosm": "Tu,Fr 14:00-18:30; We 09:00-12:00,14:00-18:30; Sa 09:00-12:30", "adresse": "90 rue H Barbusse"}, "geometry": {"type": "Point", "coordinates": [3.0119908659525, 50.609108644018]}, "record_timestamp": "2022-06-02T04:00:01.376+02:00"},{"datasetid": "bibliotheques-mel", "recordid": "2084d6f9b555dc711b6a89dba011ad5cbafe4077", "fields": {"ville": "MONS EN BAROEUL", "geometry": {"coordinates": [3.1200102322303, 50.644107078656], "type": "Point"}, "geo_point_2d": [50.644107078656, 3.1200102322303], "objectid": "70", "libelle": "Bibliotheque de Mons en Baroeul", "code_postal": "59370", "horairesosm": "Tu 15:00-19:00; We,Sa 10:00-12:00,14:00-17:30; Th,Fr 16:00-19:00", "adresse": "Rue de Normandie"}, "geometry": {"type": "Point", "coordinates": [3.1200102322303, 50.644107078656]}, "record_timestamp": "2022-06-02T04:00:01.376+02:00"},{"datasetid": "bibliotheques-mel", "recordid": "f9579e1507732f817e2ceb3410d20ffdaa1d8a5f", "fields": {"ville": "NEUVILLE EN FERRAIN", "geometry": {"coordinates": [3.1542927370657, 50.750197173807], "type": "Point"}, "geo_point_2d": [50.750197173807, 3.1542927370657], "objectid": "73", "libelle": "Bibliotheque pour tous", "code_postal": "59960", "horairesosm": "Tu,Th 16:30-18:30; We 10:00-12:00,15:00-17:00; Sa,Su 10:00-12:00", "adresse": "41 rue de Tourcoing"}, "geometry": {"type": "Point", "coordinates": [3.1542927370657, 50.750197173807]}, "record_timestamp": "2022-06-02T04:00:01.376+02:00"},{"datasetid": "bibliotheques-mel", "recordid": "fcfbc2f5b1d89e3f1900dbb7eb957fd3231714bd", "fields": {"ville": "PERONNE EN MELANTOIS", "geometry": {"coordinates": [3.1678069712557, 50.567838337006], "type": "Point"}, "geo_point_2d": [50.567838337006, 3.1678069712557], "objectid": "78", "libelle": "Bibliotheque", "code_postal": "59273", "horairesosm": "We 17:30-19:30; Sa,Su 11:00-12:30;", "adresse": "39 Rue de l'Eglise"}, "geometry": {"type": "Point", "coordinates": [3.1678069712557, 50.567838337006]}, "record_timestamp": "2022-06-02T04:00:01.376+02:00"},{"datasetid": "bibliotheques-mel", "recordid": "ec69ae27cd9eaa0b4e5ae3dca1ee79904527941c", "fields": {"ville": "QUESNOY SUR DEULE", "geometry": {"coordinates": [3.0025949923123, 50.711217308093], "type": "Point"}, "geo_point_2d": [50.711217308093, 3.0025949923123], "objectid": "80", "libelle": "Mediatheque des Etreindelles", "code_postal": "59890", "horairesosm": "Tu 16:00-19:00; We 10:00-12:00,14:00-18:00; Fr 16:00-18:00; Sa 10:00-12:00,14:00-17:00", "adresse": "79 rue des Etreindelles"}, "geometry": {"type": "Point", "coordinates": [3.0025949923123, 50.711217308093]}, "record_timestamp": "2022-06-02T04:00:01.376+02:00"},{"datasetid": "bibliotheques-mel", "recordid": "5ad55f713d9bdf2965586d08341c604da86856ee", "fields": {"ville": "BOIS GRENIER", "geometry": {"coordinates": [2.873826600002, 50.649182200029], "type": "Point"}, "geo_point_2d": [50.649182200029, 2.873826600002], "objectid": "124", "libelle": "Mediatheque de Bois-Grenier \"Le Grenier aux Livres\"", "code_postal": "59280", "horairesosm": "Tu 16:30-18:00; We 15:00-19:00; Fr 17:30-19:00; Sa 10:00-12:30,14:00-16:00", "adresse": "Place des Trois Maires"}, "geometry": {"type": "Point", "coordinates": [2.873826600002, 50.649182200029]}, "record_timestamp": "2022-06-02T04:00:01.376+02:00"},{"datasetid": "bibliotheques-mel", "recordid": "03a7ad807a919909b1f46b51802dd62d7e866587", "fields": {"ville": "RADINGHEM EN WEPPES", "geometry": {"coordinates": [2.9081559000069, 50.62030590001], "type": "Point"}, "geo_point_2d": [50.62030590001, 2.9081559000069], "objectid": "126", "libelle": "Mediatheque de Radinghem-en-Weppes", "code_postal": "59320", "horairesosm": "Tu 17:30-19:00;We 14:00-17:00;Sa 14:00-15:30", "adresse": "3 rue de l'Eglise (a cote du Foyer Rural)"}, "geometry": {"type": "Point", "coordinates": [2.9081559000069, 50.62030590001]}, "record_timestamp": "2022-06-02T04:00:01.376+02:00"},{"datasetid": "bibliotheques-mel", "recordid": "28b701775f2dff93788752b77ffd6b6a97cd8842", "fields": {"ville": "LILLE", "geometry": {"coordinates": [3.0685221042015, 50.619499277777], "type": "Point"}, "geo_point_2d": [50.619499277777, 3.0685221042015], "objectid": "23322", "libelle": "BU de Droit et Gestion - Bibliotheque Universitaire", "horairesosm": "Mo-Fr 9:00-17:15; Sa 09:00-16:30", "adresse": "1 place Deliot"}, "geometry": {"type": "Point", "coordinates": [3.0685221042015, 50.619499277777]}, "record_timestamp": "2022-06-02T04:00:01.376+02:00"},{"datasetid": "bibliotheques-mel", "recordid": "6cfa423ba061a56697a763e97fbe6be60086dbd4", "fields": {"ville": "WERVICQ-SUD", "geometry": {"coordinates": [3.0429283318471, 50.772599693822], "type": "Point"}, "geo_point_2d": [50.772599693822, 3.0429283318471], "objectid": "23314", "libelle": "Bibliotheque pour tous", "code_postal": "59117", "horairesosm": "Tu,Fr 16:30-17:30; We 10:00-12:00,16:00-18:00;Sa 10:30-11:45", "adresse": "Rue de l\u001aAbbe Bonpain"}, "geometry": {"type": "Point", "coordinates": [3.0429283318471, 50.772599693822]}, "record_timestamp": "2022-06-02T04:00:01.376+02:00"},{"datasetid": "bibliotheques-mel", "recordid": "15f7c22412b2e292bee96bb4911536988946e85a", "fields": {"ville": "VILLENEUVE D'ASCQ", "geometry": {"coordinates": [3.1305956168009, 50.620754214519], "type": "Point"}, "geo_point_2d": [50.620754214519, 3.1305956168009], "objectid": "102", "libelle": "Mediatheque municipale Till l'Espiegle", "code_postal": "59650", "horairesosm": "Tu,Th,Fr 13:00-18:30; We,Sa 10:00-18:30", "adresse": "96 Chaussee de l'Hotel de Ville"}, "geometry": {"type": "Point", "coordinates": [3.1305956168009, 50.620754214519]}, "record_timestamp": "2022-06-02T04:00:01.376+02:00"},{"datasetid": "bibliotheques-mel", "recordid": "1122f07e7af3b73afcd5344fe059b9ab13b74d28", "fields": {"ville": "VILLENEUVE D'ASCQ", "geometry": {"coordinates": [3.1425396246257, 50.624132829964], "type": "Point"}, "geo_point_2d": [50.624132829964, 3.1425396246257], "objectid": "107", "libelle": "Bibliotheque LARC ensemble", "code_postal": "59650", "horairesosm": "Tu 15:30-17:30", "adresse": "47 rue Corneille (Residence-Poste)"}, "geometry": {"type": "Point", "coordinates": [3.1425396246257, 50.624132829964]}, "record_timestamp": "2022-06-02T04:00:01.376+02:00"},{"datasetid": "bibliotheques-mel", "recordid": "9f70a2cd21a6600c5c465dca5a77a30c2d536ea7", "fields": {"ville": "VILLENEUVE D'ASCQ", "geometry": {"coordinates": [3.1641591417033, 50.643872687761], "type": "Point"}, "geo_point_2d": [50.643872687761, 3.1641591417033], "objectid": "109", "libelle": "Bibliotheque du Centre social Cocteau", "code_postal": "59650", "horairesosm": "Tu 15:45-18:30; We 17:00-18:30; Sa 11:00-12:00", "adresse": "44 Rue de la Contrescarpe (Cousinerie)"}, "geometry": {"type": "Point", "coordinates": [3.1641591417033, 50.643872687761]}, "record_timestamp": "2022-06-02T04:00:01.376+02:00"},{"datasetid": "bibliotheques-mel", "recordid": "1bf1213fb25b2b81b11de632c1bd67eb812dcc54", "fields": {"ville": "VILLENEUVE D'ASCQ", "geometry": {"coordinates": [3.1537749146575, 50.641261834566], "type": "Point"}, "geo_point_2d": [50.641261834566, 3.1537749146575], "objectid": "111", "libelle": "Bibliotheque du CRAC", "code_postal": "59650", "horairesosm": "We,Sa 10:00-12:00; Th 17:00-19:00;", "adresse": "11 chemin des Crieurs (Cousinerie)"}, "geometry": {"type": "Point", "coordinates": [3.1537749146575, 50.641261834566]}, "record_timestamp": "2022-06-02T04:00:01.376+02:00"},{"datasetid": "bibliotheques-mel", "recordid": "cd36b76bdaa78be732b023cf85c1f144b1bc9da5", "fields": {"ville": "WATTIGNIES", "geometry": {"coordinates": [3.0450907414658, 50.591426799463], "type": "Point"}, "geo_point_2d": [50.591426799463, 3.0450907414658], "objectid": "115", "libelle": "Bibliotheque du Blanc Riez", "code_postal": "59139", "horairesosm": "We 15:00-17:00; Sa,Su 14:00-16:00", "adresse": "7 rue Charles Peguy"}, "geometry": {"type": "Point", "coordinates": [3.0450907414658, 50.591426799463]}, "record_timestamp": "2022-06-02T04:00:01.376+02:00"}]
